[
  {
    "name": "Prisma Tikkurila",
    "address": "Unikkotie 13, 01300 Vantaa",
    "city": "Vantaa",
    "postal_code": "01300",
    "phone": "",
    "hours": "06:00—00:00",
    "services": [
      "Tilaa verkosta"
    ],
    "latitude": null,
    "longitude": null,
    "store_type": "Prisma",
    "store_url": "/myymala/prisma-tikkurila/542865571",
    "scraped_at": "2025-05-31T13:46:29.437508",
    "source": "browser"
  },
  {
    "name": "Prisma Rovaniemi",
    "address": "Teollisuustie 2, 96320 Rovaniemi",
    "city": "Rovaniemi",
    "postal_code": "96320",
    "phone": "",
    "hours": "08:00—23:00",
    "services": [
      "Tilaa verkosta"
    ],
    "latitude": null,
    "longitude": null,
    "store_type": "Prisma",
    "store_url": "/myymala/prisma-rovaniemi/552112880",
    "scraped_at": "2025-05-31T13:46:29.441476",
    "source": "browser"
  },
  {
    "name": "Prisma Raksila Oulu",
    "address": "Tehtaankatu 3, 90130 Oulu",
    "city": "Oulu",
    "postal_code": "90130",
    "phone": "",
    "hours": "07:00—22:00",
    "services": [],
    "latitude": null,
    "longitude": null,
    "store_type": "Prisma",
    "store_url": "/myymala/prisma-raksila-oulu/516528759",
    "scraped_at": "2025-05-31T13:46:29.445108",
    "source": "browser"
  },
  {
    "name": "Roo Prisma",
    "address": "Roo tee 1, 76912 Tallinn",
    "city": "Tallinn",
    "postal_code": "76912",
    "phone": "",
    "hours": "07:00—23:00",
    "services": [],
    "latitude": null,
    "longitude": null,
    "store_type": "Prisma",
    "store_url": "/myymala/roo-prisma/720573872",
    "scraped_at": "2025-05-31T13:46:29.448205",
    "source": "browser"
  },
  {
    "name": "Sõbra Prisma",
    "address": "Sõbra 56, 51013 Tartu",
    "city": "Tartu",
    "postal_code": "51013",
    "phone": "",
    "hours": "24h",
    "services": [],
    "latitude": null,
    "longitude": null,
    "store_type": "Prisma",
    "store_url": "/myymala/sobra-prisma/685847808",
    "scraped_at": "2025-05-31T13:46:29.451594",
    "source": "browser"
  },
  {
    "name": "Prisma Kerava",
    "address": "Kauppakaari 2, 04200 Kerava",
    "city": "Kerava",
    "postal_code": "04200",
    "phone": "",
    "hours": "24h",
    "services": [
      "Tilaa verkosta"
    ],
    "latitude": null,
    "longitude": null,
    "store_type": "Prisma",
    "store_url": "/myymala/prisma-kerava/552099178",
    "scraped_at": "2025-05-31T13:46:29.454736",
    "source": "browser"
  },
  {
    "name": "Prisma Kajaani",
    "address": "Veturitie 1, 87100 Kajaani",
    "city": "Kajaani",
    "postal_code": "87100",
    "phone": "",
    "hours": "07:00—21:00",
    "services": [
      "Tilaa verkosta"
    ],
    "latitude": null,
    "longitude": null,
    "store_type": "Prisma",
    "store_url": "/myymala/prisma-kajaani/590772240",
    "scraped_at": "2025-05-31T13:46:29.457858",
    "source": "browser"
  },
  {
    "name": "Prisma Kotiranta Vaasa",
    "address": "Jukolantie 1, 65300 Vaasa",
    "city": "Vaasa",
    "postal_code": "65300",
    "phone": "",
    "hours": "07:00—23:00",
    "services": [
      "Tilaa verkosta"
    ],
    "latitude": null,
    "longitude": null,
    "store_type": "Prisma",
    "store_url": "/myymala/prisma-kotiranta-vaasa/518636626",
    "scraped_at": "2025-05-31T13:46:29.460720",
    "source": "browser"
  },
  {
    "name": "Prisma Ylöjärvi",
    "address": "Lähdevainiontie 1, 33480 Ylöjärvi",
    "city": "Ylöjärvi",
    "postal_code": "33480",
    "phone": "",
    "hours": "07:00—22:00",
    "services": [
      "Tilaa verkosta"
    ],
    "latitude": null,
    "longitude": null,
    "store_type": "Prisma",
    "store_url": "/myymala/prisma-ylojarvi/726308750",
    "scraped_at": "2025-05-31T13:46:29.463321",
    "source": "browser"
  },
  {
    "name": "Prisma Orimattila",
    "address": "Erkontie 16, 16300 Orimattila",
    "city": "Orimattila",
    "postal_code": "16300",
    "phone": "",
    "hours": "08:00—22:00",
    "services": [
      "Tilaa verkosta"
    ],
    "latitude": null,
    "longitude": null,
    "store_type": "Prisma",
    "store_url": "/myymala/prisma-orimattila/726544075",
    "scraped_at": "2025-05-31T13:46:29.466341",
    "source": "browser"
  },
  {
    "name": "Prisma Rauma",
    "address": "Porintie 4, 26100 Rauma",
    "city": "Rauma",
    "postal_code": "26100",
    "phone": "",
    "hours": "07:00—22:00",
    "services": [
      "Tilaa verkosta"
    ],
    "latitude": null,
    "longitude": null,
    "store_type": "Prisma",
    "store_url": "/myymala/prisma-rauma/603211814",
    "scraped_at": "2025-05-31T13:46:29.469124",
    "source": "browser"
  },
  {
    "name": "Mustamäe Prisma",
    "address": "Karjavälja 4, 12917 Tallinn",
    "city": "Tallinn",
    "postal_code": "12917",
    "phone": "",
    "hours": "24h",
    "services": [],
    "latitude": null,
    "longitude": null,
    "store_type": "Prisma",
    "store_url": "/myymala/mustamae-prisma/542855267",
    "scraped_at": "2025-05-31T13:46:29.472245",
    "source": "browser"
  },
  {
    "name": "Prisma Forssa",
    "address": "Tapulikuja 6, 30100 Forssa",
    "city": "Forssa",
    "postal_code": "30100",
    "phone": "",
    "hours": "07:00—22:00",
    "services": [
      "Tilaa verkosta"
    ],
    "latitude": null,
    "longitude": null,
    "store_type": "Prisma",
    "store_url": "/myymala/prisma-forssa/685839284",
    "scraped_at": "2025-05-31T13:46:29.475056",
    "source": "browser"
  },
  {
    "name": "Prisma Pori puutarha ja lemmikki",
    "address": "Tikkulantie 4, 28100 Pori",
    "city": "Pori",
    "postal_code": "28100",
    "phone": "",
    "hours": "09:00—19:00",
    "services": [
      "Tilaa verkosta"
    ],
    "latitude": null,
    "longitude": null,
    "store_type": "Prisma",
    "store_url": "/myymala/prisma-pori-puutarha-ja-lemmikki/549977817",
    "scraped_at": "2025-05-31T13:46:29.477601",
    "source": "browser"
  },
  {
    "name": "Prisma Hollola",
    "address": "Kansankatu 8, 15870 Hollola",
    "city": "Hollola",
    "postal_code": "15870",
    "phone": "",
    "hours": "07:00—23:00",
    "services": [
      "Tilaa verkosta"
    ],
    "latitude": null,
    "longitude": null,
    "store_type": "Prisma",
    "store_url": "/myymala/prisma-hollola/708269170",
    "scraped_at": "2025-05-31T13:46:29.479977",
    "source": "browser"
  },
  {
    "name": "Prisma Linnanmaa Oulu",
    "address": "Kauppalinnankuja 1-3, 90570 Oulu",
    "city": "Oulu",
    "postal_code": "90570",
    "phone": "",
    "hours": "07:00—21:00",
    "services": [
      "Tilaa verkosta"
    ],
    "latitude": null,
    "longitude": null,
    "store_type": "Prisma",
    "store_url": "/myymala/prisma-linnanmaa-oulu/603116906",
    "scraped_at": "2025-05-31T13:46:29.482313",
    "source": "browser"
  },
  {
    "name": "Prisma Savonlinna",
    "address": "Nojanmaantie 15, 57210 Savonlinna",
    "city": "Savonlinna",
    "postal_code": "57210",
    "phone": "",
    "hours": "07:00—22:00",
    "services": [
      "Tilaa verkosta"
    ],
    "latitude": null,
    "longitude": null,
    "store_type": "Prisma",
    "store_url": "/myymala/prisma-savonlinna/552105082",
    "scraped_at": "2025-05-31T13:46:29.484607",
    "source": "browser"
  },
  {
    "name": "Prisma Halikko",
    "address": "Prismantie 2, 24800 Halikko",
    "city": "Halikko",
    "postal_code": "24800",
    "phone": "",
    "hours": "24h",
    "services": [
      "Tilaa verkosta"
    ],
    "latitude": null,
    "longitude": null,
    "store_type": "Prisma",
    "store_url": "/myymala/prisma-halikko/613764729",
    "scraped_at": "2025-05-31T13:46:29.486985",
    "source": "browser"
  },
  {
    "name": "Prisma Keljo Jyväskylä",
    "address": "Kylmälahdentie 8, 40500 Jyväskylä",
    "city": "Jyväskylä",
    "postal_code": "40500",
    "phone": "",
    "hours": "07:00—23:00",
    "services": [
      "Tilaa verkosta"
    ],
    "latitude": null,
    "longitude": null,
    "store_type": "Prisma",
    "store_url": "/myymala/prisma-keljo-jyvaskyla/590771861",
    "scraped_at": "2025-05-31T13:46:29.489655",
    "source": "browser"
  },
  {
    "name": "Prisma Olari",
    "address": "Komeetankatu 2, 02210 Espoo",
    "city": "Espoo",
    "postal_code": "02210",
    "phone": "",
    "hours": "24h",
    "services": [
      "Tilaa verkosta"
    ],
    "latitude": null,
    "longitude": null,
    "store_type": "Prisma",
    "store_url": "/myymala/prisma-olari/542862479",
    "scraped_at": "2025-05-31T13:46:29.492364",
    "source": "browser"
  },
  {
    "name": "S-market Sundom",
    "address": "Kronvikintie 4, 65410 Sundom",
    "city": "Sundom",
    "postal_code": "65410",
    "phone": "",
    "hours": "07:00—21:00",
    "services": [],
    "latitude": null,
    "longitude": null,
    "store_type": "S-market",
    "store_url": "/myymala/s-market-sundom/639200443",
    "scraped_at": "2025-05-31T13:46:35.386847",
    "source": "browser"
  },
  {
    "name": "S-market Vaasanhalli",
    "address": "Helsinginkatu 1, 00500 Helsinki",
    "city": "Helsinki",
    "postal_code": "00500",
    "phone": "",
    "hours": "24h",
    "services": [],
    "latitude": null,
    "longitude": null,
    "store_type": "S-market",
    "store_url": "/myymala/s-market-vaasanhalli/536750904",
    "scraped_at": "2025-05-31T13:46:35.391412",
    "source": "browser"
  },
  {
    "name": "S-market Oulainen",
    "address": "Keskuskatu 4, 86300 Oulainen",
    "city": "Oulainen",
    "postal_code": "86300",
    "phone": "",
    "hours": "07:00—22:00",
    "services": [
      "Tilaa verkosta"
    ],
    "latitude": null,
    "longitude": null,
    "store_type": "S-market",
    "store_url": "/myymala/s-market-oulainen/503134249",
    "scraped_at": "2025-05-31T13:46:35.394815",
    "source": "browser"
  },
  {
    "name": "S-market Toijala Akaa",
    "address": "Valtatie 1, 37800 Akaa",
    "city": "Akaa",
    "postal_code": "37800",
    "phone": "",
    "hours": "07:00—22:00",
    "services": [
      "Tilaa verkosta"
    ],
    "latitude": null,
    "longitude": null,
    "store_type": "S-market",
    "store_url": "/myymala/s-market-toijala-akaa/639126457",
    "scraped_at": "2025-05-31T13:46:35.397852",
    "source": "browser"
  },
  {
    "name": "S-market Hämeenkyrö",
    "address": "Härkikuja 4, 39100 Hämeenkyrö",
    "city": "Hämeenkyrö",
    "postal_code": "39100",
    "phone": "",
    "hours": "07:00—22:00",
    "services": [
      "Tilaa verkosta"
    ],
    "latitude": null,
    "longitude": null,
    "store_type": "S-market",
    "store_url": "/myymala/s-market-hameenkyro/500935010",
    "scraped_at": "2025-05-31T13:46:35.400819",
    "source": "browser"
  },
  {
    "name": "S-market Reisjärvi",
    "address": "Reisjärventie 17, 85900 Reisjärvi",
    "city": "Reisjärvi",
    "postal_code": "85900",
    "phone": "",
    "hours": "07:00—21:00",
    "services": [],
    "latitude": null,
    "longitude": null,
    "store_type": "S-market",
    "store_url": "/myymala/s-market-reisjarvi/502086267",
    "scraped_at": "2025-05-31T13:46:35.404249",
    "source": "browser"
  },
  {
    "name": "S-market Keuruu",
    "address": "Keuruuntie 9, 42700 Keuruu",
    "city": "Keuruu",
    "postal_code": "42700",
    "phone": "",
    "hours": "07:00—22:00",
    "services": [
      "Tilaa verkosta"
    ],
    "latitude": null,
    "longitude": null,
    "store_type": "S-market",
    "store_url": "/myymala/s-market-keuruu/511779373",
    "scraped_at": "2025-05-31T13:46:35.407610",
    "source": "browser"
  },
  {
    "name": "S-market Sokos Lahti",
    "address": "Aleksanterinkatu 19-21, 15110 Lahti",
    "city": "Lahti",
    "postal_code": "15110",
    "phone": "",
    "hours": "08:00—18:00",
    "services": [],
    "latitude": null,
    "longitude": null,
    "store_type": "S-market",
    "store_url": "/myymala/s-market-sokos-lahti/590783601",
    "scraped_at": "2025-05-31T13:46:35.410387",
    "source": "browser"
  },
  {
    "name": "S-market Keitele",
    "address": "Lossitie 3, 72600 Keitele",
    "city": "Keitele",
    "postal_code": "72600",
    "phone": "",
    "hours": "07:00—21:00",
    "services": [
      "Tilaa verkosta"
    ],
    "latitude": null,
    "longitude": null,
    "store_type": "S-market",
    "store_url": "/myymala/s-market-keitele/685839037",
    "scraped_at": "2025-05-31T13:46:35.412869",
    "source": "browser"
  },
  {
    "name": "S-market Korso",
    "address": "Maakotkantie 19, 01450 Vantaa",
    "city": "Vantaa",
    "postal_code": "01450",
    "phone": "",
    "hours": "07:00—23:00",
    "services": [
      "Tilaa verkosta"
    ],
    "latitude": null,
    "longitude": null,
    "store_type": "S-market",
    "store_url": "/myymala/s-market-korso/613760065",
    "scraped_at": "2025-05-31T13:46:35.415622",
    "source": "browser"
  },
  {
    "name": "S-market Jokela Valkeala",
    "address": "Kauniskankaantie 2, 45360 Valkeala",
    "city": "Valkeala",
    "postal_code": "45360",
    "phone": "",
    "hours": "07:00—21:00",
    "services": [],
    "latitude": null,
    "longitude": null,
    "store_type": "S-market",
    "store_url": "/myymala/s-market-jokela-valkeala/645954785",
    "scraped_at": "2025-05-31T13:46:35.418204",
    "source": "browser"
  },
  {
    "name": "S-market Juuka",
    "address": "Karjalantie 1, 83900 Juuka",
    "city": "Juuka",
    "postal_code": "83900",
    "phone": "",
    "hours": "06:00—22:00",
    "services": [
      "Tilaa verkosta"
    ],
    "latitude": null,
    "longitude": null,
    "store_type": "S-market",
    "store_url": "/myymala/s-market-juuka/725905179",
    "scraped_at": "2025-05-31T13:46:35.420651",
    "source": "browser"
  },
  {
    "name": "S-market Jakomäki",
    "address": "Jakomäentie 2 A, 00770 Helsinki",
    "city": "Helsinki",
    "postal_code": "00770",
    "phone": "",
    "hours": "06:30—23:00",
    "services": [
      "Tilaa verkosta"
    ],
    "latitude": null,
    "longitude": null,
    "store_type": "S-market",
    "store_url": "/myymala/s-market-jakomaki/517608857",
    "scraped_at": "2025-05-31T13:46:35.423478",
    "source": "browser"
  },
  {
    "name": "S-market Noljakka",
    "address": "Marjalantie 2, 80140 Joensuu",
    "city": "Joensuu",
    "postal_code": "80140",
    "phone": "",
    "hours": "07:00—23:00",
    "services": [],
    "latitude": null,
    "longitude": null,
    "store_type": "S-market",
    "store_url": "/myymala/s-market-noljakka/552112021",
    "scraped_at": "2025-05-31T13:46:35.428128",
    "source": "browser"
  },
  {
    "name": "S-Market Rajakylä",
    "address": "Tervakukkatie 2, 90580 Oulu",
    "city": "Oulu",
    "postal_code": "90580",
    "phone": "",
    "hours": "07:00—23:00",
    "services": [],
    "latitude": null,
    "longitude": null,
    "store_type": "S-market",
    "store_url": "/myymala/s-market-rajakyla/726425628",
    "scraped_at": "2025-05-31T13:46:35.430737",
    "source": "browser"
  },
  {
    "name": "S-market Paltamo",
    "address": "Puolangantie 9, 88300 Paltamo",
    "city": "Paltamo",
    "postal_code": "88300",
    "phone": "",
    "hours": "07:00—21:00",
    "services": [
      "Tilaa verkosta"
    ],
    "latitude": null,
    "longitude": null,
    "store_type": "S-market",
    "store_url": "/myymala/s-market-paltamo/502097462",
    "scraped_at": "2025-05-31T13:46:35.433302",
    "source": "browser"
  },
  {
    "name": "S-market Lauritsala",
    "address": "Itsenäisyydenkatu 19, 53300 Lappeenranta",
    "city": "Lappeenranta",
    "postal_code": "53300",
    "phone": "",
    "hours": "07:00—22:00",
    "services": [],
    "latitude": null,
    "longitude": null,
    "store_type": "S-market",
    "store_url": "/myymala/s-market-lauritsala/584197610",
    "scraped_at": "2025-05-31T13:46:35.435694",
    "source": "browser"
  },
  {
    "name": "S-market Kehätie",
    "address": "Spindeltie 2, 26200 Rauma",
    "city": "Rauma",
    "postal_code": "26200",
    "phone": "",
    "hours": "07:00—22:00",
    "services": [
      "Tilaa verkosta"
    ],
    "latitude": null,
    "longitude": null,
    "store_type": "S-market",
    "store_url": "/myymala/s-market-kehatie/685845190",
    "scraped_at": "2025-05-31T13:46:35.438204",
    "source": "browser"
  },
  {
    "name": "S-market Suomussalmi",
    "address": "Ämmänkatu 2, 89600 Suomussalmi",
    "city": "Suomussalmi",
    "postal_code": "89600",
    "phone": "",
    "hours": "07:00—21:00",
    "services": [
      "Tilaa verkosta"
    ],
    "latitude": null,
    "longitude": null,
    "store_type": "S-market",
    "store_url": "/myymala/s-market-suomussalmi/502098510",
    "scraped_at": "2025-05-31T13:46:35.440658",
    "source": "browser"
  },
  {
    "name": "S-market Laajankangas",
    "address": "Laajankankaankatu 2, 87500 Kajaani",
    "city": "Kajaani",
    "postal_code": "87500",
    "phone": "",
    "hours": "07:00—21:00",
    "services": [],
    "latitude": null,
    "longitude": null,
    "store_type": "S-market",
    "store_url": "/myymala/s-market-laajankangas/535583744",
    "scraped_at": "2025-05-31T13:46:35.442895",
    "source": "browser"
  },
  {
    "name": "Food Market Herkku Helsingin Keskusta",
    "address": "Aleksanterinkatu 52, 00100 Helsinki",
    "city": "Helsinki",
    "postal_code": "00100",
    "phone": "",
    "hours": "09:00—19:00",
    "services": [
      "Tilaa verkosta"
    ],
    "latitude": null,
    "longitude": null,
    "store_type": "Food Market Herkku",
    "store_url": "/myymala/food-market-herkku-helsingin-keskusta/720571157",
    "scraped_at": "2025-05-31T13:46:46.118387",
    "source": "browser"
  },
  {
    "name": "Alepa Havukoski",
    "address": "Eteläinen Rastitie 6, 01360 Vantaa",
    "city": "Vantaa",
    "postal_code": "01360",
    "phone": "",
    "hours": "08:00—23:00",
    "services": [],
    "latitude": null,
    "longitude": null,
    "store_type": "Alepa",
    "store_url": "/myymala/alepa-havukoski/725856933",
    "scraped_at": "2025-05-31T13:46:53.942305",
    "source": "browser"
  },
  {
    "name": "Alepa Malmin Nova",
    "address": "Malminkaari 13-15, 00700 Helsinki",
    "city": "Helsinki",
    "postal_code": "00700",
    "phone": "",
    "hours": "24h",
    "services": [],
    "latitude": null,
    "longitude": null,
    "store_type": "Alepa",
    "store_url": "/myymala/alepa-malmin-nova/726007267",
    "scraped_at": "2025-05-31T13:46:53.945813",
    "source": "browser"
  },
  {
    "name": "Alepa Pähkinärinne",
    "address": "Lammaslammentie 8, 01710 Vantaa",
    "city": "Vantaa",
    "postal_code": "01710",
    "phone": "",
    "hours": "08:00—23:00",
    "services": [
      "Tilaa verkosta"
    ],
    "latitude": null,
    "longitude": null,
    "store_type": "Alepa",
    "store_url": "/myymala/alepa-pahkinarinne/726435585",
    "scraped_at": "2025-05-31T13:46:53.949114",
    "source": "browser"
  },
  {
    "name": "Alepa Kampin Keskus",
    "address": "Urho Kekkosen katu 1, 00100 Helsinki",
    "city": "Helsinki",
    "postal_code": "00100",
    "phone": "",
    "hours": "24h",
    "services": [],
    "latitude": null,
    "longitude": null,
    "store_type": "Alepa",
    "store_url": "/myymala/alepa-kampin-keskus/725704257",
    "scraped_at": "2025-05-31T13:46:53.952108",
    "source": "browser"
  },
  {
    "name": "Alepa Maunula",
    "address": "Metsäpurontie 23, 00630 Helsinki",
    "city": "Helsinki",
    "postal_code": "00630",
    "phone": "",
    "hours": "08:00—22:00",
    "services": [
      "Tilaa verkosta"
    ],
    "latitude": null,
    "longitude": null,
    "store_type": "Alepa",
    "store_url": "/myymala/alepa-maunula/613761972",
    "scraped_at": "2025-05-31T13:46:53.955060",
    "source": "browser"
  },
  {
    "name": "Alepa Koskela",
    "address": "Antti Korpintie 3, 00600 Helsinki",
    "city": "Helsinki",
    "postal_code": "00600",
    "phone": "",
    "hours": "08:00—23:00",
    "services": [],
    "latitude": null,
    "longitude": null,
    "store_type": "Alepa",
    "store_url": "/myymala/alepa-koskela/515454627",
    "scraped_at": "2025-05-31T13:46:53.958770",
    "source": "browser"
  },
  {
    "name": "Alepa Kuparitalo",
    "address": "Töölönkatu 4, 00100 Helsinki",
    "city": "Helsinki",
    "postal_code": "00100",
    "phone": "",
    "hours": "24h",
    "services": [],
    "latitude": null,
    "longitude": null,
    "store_type": "Alepa",
    "store_url": "/myymala/alepa-kuparitalo/726256637",
    "scraped_at": "2025-05-31T13:46:53.961693",
    "source": "browser"
  },
  {
    "name": "Alepa Matinkylä",
    "address": "Matinkatu 22, 02230 Espoo",
    "city": "Espoo",
    "postal_code": "02230",
    "phone": "",
    "hours": "08:00—22:00",
    "services": [
      "Tilaa verkosta"
    ],
    "latitude": null,
    "longitude": null,
    "store_type": "Alepa",
    "store_url": "/myymala/alepa-matinkyla/726256631",
    "scraped_at": "2025-05-31T13:46:53.964529",
    "source": "browser"
  },
  {
    "name": "Alepa Jousenpuisto",
    "address": "Jousenpuistonkatu 2, 02200 Espoo",
    "city": "Espoo",
    "postal_code": "02200",
    "phone": "",
    "hours": "24h",
    "services": [],
    "latitude": null,
    "longitude": null,
    "store_type": "Alepa",
    "store_url": "/myymala/alepa-jousenpuisto/726007289",
    "scraped_at": "2025-05-31T13:46:53.967321",
    "source": "browser"
  },
  {
    "name": "Alepa Munkkiniemi",
    "address": "Solnantie 35, 00330 Helsinki",
    "city": "Helsinki",
    "postal_code": "00330",
    "phone": "",
    "hours": "09:00—22:00",
    "services": [],
    "latitude": null,
    "longitude": null,
    "store_type": "Alepa",
    "store_url": "/myymala/alepa-munkkiniemi/512132028",
    "scraped_at": "2025-05-31T13:46:53.969945",
    "source": "browser"
  },
  {
    "name": "Alepa Lintuvaara",
    "address": "Linnuntie 2, 02660 Espoo",
    "city": "Espoo",
    "postal_code": "02660",
    "phone": "",
    "hours": "08:00—00:00",
    "services": [],
    "latitude": null,
    "longitude": null,
    "store_type": "Alepa",
    "store_url": "/myymala/alepa-lintuvaara/685836793",
    "scraped_at": "2025-05-31T13:46:53.972797",
    "source": "browser"
  },
  {
    "name": "Alepa Kannisto",
    "address": "Kannistonkatu 2, 04260 Kerava",
    "city": "Kerava",
    "postal_code": "04260",
    "phone": "",
    "hours": "24h",
    "services": [],
    "latitude": null,
    "longitude": null,
    "store_type": "Alepa",
    "store_url": "/myymala/alepa-kannisto/726256634",
    "scraped_at": "2025-05-31T13:46:53.975467",
    "source": "browser"
  },
  {
    "name": "Alepa Kerava",
    "address": "Lintulammenkatu 2 A, 04250 Kerava",
    "city": "Kerava",
    "postal_code": "04250",
    "phone": "",
    "hours": "08:00—23:00",
    "services": [],
    "latitude": null,
    "longitude": null,
    "store_type": "Alepa",
    "store_url": "/myymala/alepa-kerava/726030372",
    "scraped_at": "2025-05-31T13:46:53.977707",
    "source": "browser"
  },
  {
    "name": "Alepa Paloheinä",
    "address": "Pakilantie 95, 00670 Helsinki",
    "city": "Helsinki",
    "postal_code": "00670",
    "phone": "",
    "hours": "08:00—23:00",
    "services": [
      "Tilaa verkosta"
    ],
    "latitude": null,
    "longitude": null,
    "store_type": "Alepa",
    "store_url": "/myymala/alepa-paloheina/517608774",
    "scraped_at": "2025-05-31T13:46:53.980078",
    "source": "browser"
  },
  {
    "name": "Alepa Wallininkuja",
    "address": "Wallininkuja 7, 00530 Helsinki",
    "city": "Helsinki",
    "postal_code": "00530",
    "phone": "",
    "hours": "08:00—22:00",
    "services": [
      "Tilaa verkosta"
    ],
    "latitude": null,
    "longitude": null,
    "store_type": "Alepa",
    "store_url": "/myymala/alepa-wallininkuja/513929851",
    "scraped_at": "2025-05-31T13:46:53.982632",
    "source": "browser"
  },
  {
    "name": "Alepa Mankkaa",
    "address": "Mankkaanaukio 2, 02180 Espoo",
    "city": "Espoo",
    "postal_code": "02180",
    "phone": "",
    "hours": "08:00—22:00",
    "services": [
      "Tilaa verkosta"
    ],
    "latitude": null,
    "longitude": null,
    "store_type": "Alepa",
    "store_url": "/myymala/alepa-mankkaa/542869649",
    "scraped_at": "2025-05-31T13:46:53.984840",
    "source": "browser"
  },
  {
    "name": "Alepa Mikkola",
    "address": "Venuksentie 4, 01480 Vantaa",
    "city": "Vantaa",
    "postal_code": "01480",
    "phone": "",
    "hours": "08:00—22:00",
    "services": [
      "Tilaa verkosta"
    ],
    "latitude": null,
    "longitude": null,
    "store_type": "Alepa",
    "store_url": "/myymala/alepa-mikkola/512413626",
    "scraped_at": "2025-05-31T13:46:53.987074",
    "source": "browser"
  },
  {
    "name": "Alepa Kauklahti",
    "address": "Kuninkaankartanontie 11, 02780 Espoo",
    "city": "Espoo",
    "postal_code": "02780",
    "phone": "",
    "hours": "08:00—23:00",
    "services": [
      "Tilaa verkosta"
    ],
    "latitude": null,
    "longitude": null,
    "store_type": "Alepa",
    "store_url": "/myymala/alepa-kauklahti/726261758",
    "scraped_at": "2025-05-31T13:46:53.989562",
    "source": "browser"
  },
  {
    "name": "Alepa Mechelininkatu",
    "address": "Mechelininkatu 5, 00100 Helsinki",
    "city": "Helsinki",
    "postal_code": "00100",
    "phone": "",
    "hours": "24h",
    "services": [],
    "latitude": null,
    "longitude": null,
    "store_type": "Alepa",
    "store_url": "/myymala/alepa-mechelininkatu/725854105",
    "scraped_at": "2025-05-31T13:46:53.992100",
    "source": "browser"
  },
  {
    "name": "Alepa Päiväkumpu",
    "address": "Laurintie 84, 01420 Vantaa",
    "city": "Vantaa",
    "postal_code": "01420",
    "phone": "",
    "hours": "08:00—22:00",
    "services": [
      "Tilaa verkosta"
    ],
    "latitude": null,
    "longitude": null,
    "store_type": "Alepa",
    "store_url": "/myymala/alepa-paivakumpu/500289202",
    "scraped_at": "2025-05-31T13:46:53.994312",
    "source": "browser"
  },
  {
    "name": "Sale Muurola",
    "address": "Mäkipuistontie 1, 97140 Muurola",
    "city": "Muurola",
    "postal_code": "97140",
    "phone": "",
    "hours": "07:00—21:00",
    "services": [],
    "latitude": null,
    "longitude": null,
    "store_type": "Sale",
    "store_url": "/myymala/sale-muurola/685839896",
    "scraped_at": "2025-05-31T13:47:02.410628",
    "source": "browser"
  },
  {
    "name": "Sale Virtasalmi",
    "address": "Kauppakuja 1, 77330 Virtasalmi",
    "city": "Virtasalmi",
    "postal_code": "77330",
    "phone": "",
    "hours": "08:00—18:00",
    "services": [],
    "latitude": null,
    "longitude": null,
    "store_type": "Sale",
    "store_url": "/myymala/sale-virtasalmi/501926604",
    "scraped_at": "2025-05-31T13:47:02.414233",
    "source": "browser"
  },
  {
    "name": "Sale Taalintehdas",
    "address": "Kolabacksvägen 2, 25900 Taalintehdas",
    "city": "Taalintehdas",
    "postal_code": "25900",
    "phone": "",
    "hours": "07:00—21:00",
    "services": [],
    "latitude": null,
    "longitude": null,
    "store_type": "Sale",
    "store_url": "/myymala/sale-taalintehdas/542857479",
    "scraped_at": "2025-05-31T13:47:02.417343",
    "source": "browser"
  },
  {
    "name": "Sale Sammatti",
    "address": "Lönnrotintie 12, 09220 Sammatti",
    "city": "Sammatti",
    "postal_code": "09220",
    "phone": "",
    "hours": "07:00—21:00",
    "services": [],
    "latitude": null,
    "longitude": null,
    "store_type": "Sale",
    "store_url": "/myymala/sale-sammatti/500553912",
    "scraped_at": "2025-05-31T13:47:02.420508",
    "source": "browser"
  },
  {
    "name": "Sale Okeroinen",
    "address": "Kiekkokatu 4, 15800 Lahti",
    "city": "Lahti",
    "postal_code": "15800",
    "phone": "",
    "hours": "08:00—22:00",
    "services": [],
    "latitude": null,
    "longitude": null,
    "store_type": "Sale",
    "store_url": "/myymala/sale-okeroinen/697946770",
    "scraped_at": "2025-05-31T13:47:02.423775",
    "source": "browser"
  },
  {
    "name": "Sale Karavaani",
    "address": "Lasitehtaantie 63, 11910 Riihimäki",
    "city": "Riihimäki",
    "postal_code": "11910",
    "phone": "",
    "hours": "07:00—23:00",
    "services": [],
    "latitude": null,
    "longitude": null,
    "store_type": "Sale",
    "store_url": "/myymala/sale-karavaani/502834740",
    "scraped_at": "2025-05-31T13:47:02.427187",
    "source": "browser"
  },
  {
    "name": "Sale Valtakatu Ylivieska",
    "address": "Valtakatu 5, 84100 Ylivieska",
    "city": "Ylivieska",
    "postal_code": "84100",
    "phone": "",
    "hours": "07:00—22:00",
    "services": [],
    "latitude": null,
    "longitude": null,
    "store_type": "Sale",
    "store_url": "/myymala/sale-valtakatu-ylivieska/666713805",
    "scraped_at": "2025-05-31T13:47:02.430072",
    "source": "browser"
  },
  {
    "name": "Sale Pukinkulma Vaasa",
    "address": "Gerbyntie 14, 65230 Vaasa",
    "city": "Vaasa",
    "postal_code": "65230",
    "phone": "",
    "hours": "07:00—22:00",
    "services": [],
    "latitude": null,
    "longitude": null,
    "store_type": "Sale",
    "store_url": "/myymala/sale-pukinkulma-vaasa/708273016",
    "scraped_at": "2025-05-31T13:47:02.432985",
    "source": "browser"
  },
  {
    "name": "Sale Suuppa Pirkkala",
    "address": "Suupantie 10, 33960 Pirkkala",
    "city": "Pirkkala",
    "postal_code": "33960",
    "phone": "",
    "hours": "08:00—23:00",
    "services": [
      "Tilaa verkosta"
    ],
    "latitude": null,
    "longitude": null,
    "store_type": "Sale",
    "store_url": "/myymala/sale-suuppa-pirkkala/519729974",
    "scraped_at": "2025-05-31T13:47:02.435609",
    "source": "browser"
  },
  {
    "name": "Sale Pyhäranta",
    "address": "Pajamäentie 3, 23950 Pyhäranta",
    "city": "Pyhäranta",
    "postal_code": "23950",
    "phone": "",
    "hours": "08:00—21:00",
    "services": [],
    "latitude": null,
    "longitude": null,
    "store_type": "Sale",
    "store_url": "/myymala/sale-pyharanta/500921572",
    "scraped_at": "2025-05-31T13:47:02.438087",
    "source": "browser"
  },
  {
    "name": "Sale Satama Kuopio",
    "address": "Kauppakatu 7, 70100 Kuopio",
    "city": "Kuopio",
    "postal_code": "70100",
    "phone": "",
    "hours": "07:00—22:00",
    "services": [],
    "latitude": null,
    "longitude": null,
    "store_type": "Sale",
    "store_url": "/myymala/sale-satama-kuopio/697955763",
    "scraped_at": "2025-05-31T13:47:02.441047",
    "source": "browser"
  },
  {
    "name": "Sale Kemi Mäntylä",
    "address": "Koivuharjunkatu 74, 94100 Kemi",
    "city": "Kemi",
    "postal_code": "94100",
    "phone": "",
    "hours": "07:00—22:00",
    "services": [],
    "latitude": null,
    "longitude": null,
    "store_type": "Sale",
    "store_url": "/myymala/sale-kemi-mantyla/726412748",
    "scraped_at": "2025-05-31T13:47:02.443650",
    "source": "browser"
  },
  {
    "name": "Sale Torikatu Tornio",
    "address": "Torikatu 21, 95400 Tornio",
    "city": "Tornio",
    "postal_code": "95400",
    "phone": "",
    "hours": "07:00—22:00",
    "services": [],
    "latitude": null,
    "longitude": null,
    "store_type": "Sale",
    "store_url": "/myymala/sale-torikatu-tornio/708216726",
    "scraped_at": "2025-05-31T13:47:02.446044",
    "source": "browser"
  },
  {
    "name": "Sale Höyhtyä Oulu",
    "address": "Latokartanontie 1, 90150 Oulu",
    "city": "Oulu",
    "postal_code": "90150",
    "phone": "",
    "hours": "08:00—23:00",
    "services": [],
    "latitude": null,
    "longitude": null,
    "store_type": "Sale",
    "store_url": "/myymala/sale-hoyhtya-oulu/503139479",
    "scraped_at": "2025-05-31T13:47:02.448391",
    "source": "browser"
  },
  {
    "name": "Sale Korsholmanpuistikko Vaasa",
    "address": "Korsholmanpuistikko 27, 65100 Vaasa",
    "city": "Vaasa",
    "postal_code": "65100",
    "phone": "",
    "hours": "07:00—22:00",
    "services": [],
    "latitude": null,
    "longitude": null,
    "store_type": "Sale",
    "store_url": "/myymala/sale-korsholmanpuistikko-vaasa/552111213",
    "scraped_at": "2025-05-31T13:47:02.450654",
    "source": "browser"
  },
  {
    "name": "Sale Saukkola",
    "address": "Turuntie 2180, 09430 Saukkola",
    "city": "Saukkola",
    "postal_code": "09430",
    "phone": "",
    "hours": "07:00—22:00",
    "services": [],
    "latitude": null,
    "longitude": null,
    "store_type": "Sale",
    "store_url": "/myymala/sale-saukkola/726334890",
    "scraped_at": "2025-05-31T13:47:02.453006",
    "source": "browser"
  },
  {
    "name": "Sale Ryttylä",
    "address": "Urheilukentäntie 14, 12310 Ryttylä",
    "city": "Ryttylä",
    "postal_code": "12310",
    "phone": "",
    "hours": "08:00—21:00",
    "services": [],
    "latitude": null,
    "longitude": null,
    "store_type": "Sale",
    "store_url": "/myymala/sale-ryttyla/603211228",
    "scraped_at": "2025-05-31T13:47:02.455622",
    "source": "browser"
  },
  {
    "name": "Sale Tahko",
    "address": "Sääskiniementie 560, 73310 Tahkovuori",
    "city": "Tahkovuori",
    "postal_code": "73310",
    "phone": "",
    "hours": "09:00—21:00",
    "services": [],
    "latitude": null,
    "longitude": null,
    "store_type": "Sale",
    "store_url": "/myymala/sale-tahko/639123868",
    "scraped_at": "2025-05-31T13:47:02.458222",
    "source": "browser"
  },
  {
    "name": "Sale Toivakka",
    "address": "Toivakantie 41, 41660 Toivakka",
    "city": "Toivakka",
    "postal_code": "41660",
    "phone": "",
    "hours": "07:00—21:00",
    "services": [
      "Tilaa verkosta"
    ],
    "latitude": null,
    "longitude": null,
    "store_type": "Sale",
    "store_url": "/myymala/sale-toivakka/501513527",
    "scraped_at": "2025-05-31T13:47:02.460557",
    "source": "browser"
  },
  {
    "name": "Sale Hintta Oulu",
    "address": "Mäkituvantie 8, 90650 Oulu",
    "city": "Oulu",
    "postal_code": "90650",
    "phone": "",
    "hours": "08:00—22:00",
    "services": [],
    "latitude": null,
    "longitude": null,
    "store_type": "Sale",
    "store_url": "/myymala/sale-hintta-oulu/666709365",
    "scraped_at": "2025-05-31T13:47:02.462957",
    "source": "browser"
  },
  {
    "name": "S-market Herkku Oulu",
    "address": "Isokatu 25, 90100 Oulu",
    "city": "Oulu",
    "postal_code": "90100",
    "phone": "",
    "hours": "07:00—23:00",
    "services": [
      "Tilaa verkosta"
    ],
    "latitude": null,
    "longitude": null,
    "store_type": "Sokos Herkku",
    "store_url": "/myymala/s-market-herkku-oulu/720566314",
    "scraped_at": "2025-05-31T13:47:11.562768",
    "source": "browser"
  },
  {
    "name": "Mestarin Herkku",
    "address": "Kauppakatu 24, 40100 Jyväskylä",
    "city": "Jyväskylä",
    "postal_code": "40100",
    "phone": "",
    "hours": "08:00—22:00",
    "services": [
      "Tilaa verkosta"
    ],
    "latitude": null,
    "longitude": null,
    "store_type": "Mestarin Herkku",
    "store_url": "/myymala/mestarin-herkku/519684690",
    "scraped_at": "2025-05-31T13:47:17.466436",
    "source": "browser"
  }
]